<?xml version="1.0" encoding="UTF-8"?>
<kml xmlns="http://www.opengis.net/kml/2.2" xmlns:gx="http://www.google.com/kml/ext/2.2" xmlns:kml="http://www.opengis.net/kml/2.2" xmlns:atom="http://www.w3.org/2005/Atom">
<Document>
	<gx:CascadingStyle kml:id="__managed_style_270EA437821AD4EC8A59">
		<Style>
			<IconStyle>
				<scale>1.44</scale>
				<Icon>
					<href>https://raw.githubusercontent.com/vetvennarost/rusgorod/main/media/circle-stroked-15.svg</href>
				</Icon>
			</IconStyle>
			<LabelStyle>
				<color>000</color>
			</LabelStyle>
			<LineStyle>
				<width>1.5</width>
			</LineStyle>
			<PolyStyle>
			</PolyStyle>
			<BalloonStyle>
			</BalloonStyle>
		</Style>
	</gx:CascadingStyle>
	<gx:CascadingStyle kml:id="__managed_style_2831967E4E1AD4EAB544">
		<Style>
			<IconStyle>
				<scale>1.2</scale>
				<Icon>
					<href>https://raw.githubusercontent.com/vetvennarost/rusgorod/main/media/circle-stroked-15.svg&amp;scale=4</href>
				</Icon>
				<hotSpot x="64" y="128" xunits="pixels" yunits="insetPixels"/>
			</IconStyle>
			<LabelStyle>
			</LabelStyle>
			<LineStyle>
				<width>1.5</width>
			</LineStyle>
			<PolyStyle>
			</PolyStyle>
			<BalloonStyle>
			</BalloonStyle>
		</Style>
	</gx:CascadingStyle>
	<gx:CascadingStyle kml:id="__managed_style_1C9B3182321AD4EC8A59">
		<Style>
			<IconStyle>
				<scale>1.2</scale>
				<Icon>
					<href>https://raw.githubusercontent.com/vetvennarost/rusgorod/main/media/circle-stroked-15.svg</href>
				</Icon>
			</IconStyle>
			<LabelStyle>
				<color>ffd893ce</color>
			</LabelStyle>
			<LineStyle>
			</LineStyle>
			<PolyStyle>
			</PolyStyle>
			<BalloonStyle>
			</BalloonStyle>
		</Style>
	</gx:CascadingStyle>
	<gx:CascadingStyle kml:id="__managed_style_1217B0D70E1AD4EAB544">
		<Style>
			<IconStyle>
				<Icon>
					<href>https://raw.githubusercontent.com/vetvennarost/rusgorod/main/media/circle-stroked-15.svg&amp;scale=4</href>
				</Icon>
				<hotSpot x="64" y="128" xunits="pixels" yunits="insetPixels"/>
			</IconStyle>
			<LabelStyle>
			</LabelStyle>
			<LineStyle>
			</LineStyle>
			<PolyStyle>
			</PolyStyle>
			<BalloonStyle>
			</BalloonStyle>
		</Style>
	</gx:CascadingStyle>
	<StyleMap id="__managed_style_01A934F0321AD4EC8A59">
		<Pair>
			<key>normal</key>
			<styleUrl>#__managed_style_1C9B3182321AD4EC8A59</styleUrl>
		</Pair>
		<Pair>
			<key>highlight</key>
			<styleUrl>#__managed_style_270EA437821AD4EC8A59</styleUrl>
		</Pair>
	</StyleMap>
	<StyleMap id="__managed_style_0B382145F61AD4EAB544">
		<Pair>
			<key>normal</key>
			<styleUrl>#__managed_style_1217B0D70E1AD4EAB544</styleUrl>
		</Pair>
		<Pair>
			<key>highlight</key>
			<styleUrl>#__managed_style_2831967E4E1AD4EAB544</styleUrl>
		</Pair>
	</StyleMap>
	<Placemark id="0F18B441211AD4DE87F5">
		<name>Владимир</name>
		<description>1108 Володимѣрь</description>
		<styleUrl>#__managed_style_0B382145F61AD4EAB544</styleUrl>
		<Point>
			<coordinates>40.40709,56.12908,0</coordinates>
		</Point>
	</Placemark>
	
	<Placemark>
        <name>Simple placemark</name>
        <description>Attached to the ground. Intelligently places itself at the
          height of the underlying terrain.</description>
		<Icon>
			<href>http://maps.google.com/mapfiles/kml/paddle/red-stars.png</href>
		</Icon>
        <Point>
          <coordinates>40.41,56.2</coordinates>
        </Point>
      </Placemark>
	
	<Placemark id="12F1AE060A1AD4DE87F5">
		<name>Москва</name>
		<description>1147 Московь</description>
		<Point>
			<coordinates>37.61747,55.75064,0</coordinates>
		</Point>
	</Placemark>
	<Placemark id="2691CDE5771AD4DE87F5">
		<name>Галич</name>
		<description>1237 Галичь</description>
		<Point>
			<coordinates>42.36009,58.38845,0</coordinates>
		</Point>
	</Placemark>
	<Placemark id="0A06A852FD1AD4DE87F6">
		<name>Тверь</name>
		<description>1135 Тьхвѣрь</description>
		<Point>
			<coordinates>35.90034,56.86158,0</coordinates>
		</Point>
	</Placemark>
	<Placemark id="015F3721961AD4DE87F8">
		<name>Нижний Новгород</name>
		<description>1221 Новагородъ Низовския земли</description>
		<Point>
			<coordinates>44.00136,56.32849999999999,0</coordinates>
		</Point>
	</Placemark>
	<Placemark id="1B911C2BFA1AD4DE87F8">
		<name>Городец</name>
		<description>1171 Городець</description>
		<Point>
			<coordinates>43.46572,56.63998,0</coordinates>
		</Point>
	</Placemark>
	<Placemark id="2B801CC9A91AD4DE87F8">
		<name>Гороховец</name>
		<description>1239 Гороховець</description>
		<Point>
			<coordinates>42.67375,56.20425,0</coordinates>
		</Point>
	</Placemark>
	<Placemark id="34B395DBAD1AD4DE87F8">
		<name>Суздаль</name>
		<description>1024 Суждаль</description>
		<styleUrl>#__managed_style_01A934F0321AD4EC8A59</styleUrl>
		<Point>
			<coordinates>40.44372,56.41628000000001,0</coordinates>
		</Point>
	</Placemark>
	<Placemark id="494DDDB3791AD4DE87F8">
		<name>Юрьев-Польский</name>
		<description>1177 Юрьевъ</description>
		<Point>
			<coordinates>39.68051,56.49736,0</coordinates>
		</Point>
	</Placemark>
	<Placemark id="01475D658D1AD4DE87F9">
		<name>Кострома</name>
		<description>1213 Кострома</description>
		<Point>
			<coordinates>40.91817,57.77008,0</coordinates>
		</Point>
	</Placemark>
	<Placemark id="1EB6D0EBD71AD4DE87F9">
		<name>Дмитров</name>
		<description>1154 Дмитровъ</description>
		<Point>
			<coordinates>37.52008,56.34463,0</coordinates>
		</Point>
	</Placemark>
	<Placemark id="2CE46A03221AD4DE87F9">
		<name>Стародуб</name>
		<description>1218 Стародубъ</description>
		<Point>
			<coordinates>41.50196,56.44899000000001,0</coordinates>
		</Point>
	</Placemark>
	<Placemark id="337F3DC3061AD4DE87F9">
		<name>Кашин</name>
		<description>1238</description>
		<Point>
			<coordinates>37.61408,57.36079,0</coordinates>
		</Point>
	</Placemark>
	<Placemark id="46389AB2F61AD4DE87F9">
		<name>Переяславль</name>
		<description>1152 Переаславль</description>
		<Point>
			<coordinates>38.85171,56.73584000000001,0</coordinates>
		</Point>
	</Placemark>
	<Placemark id="5C4DC3D4A71AD4DE87F9">
		<name>Зубцов</name>
		<description>1216 Зубьчевъ</description>
		<Point>
			<coordinates>34.58953,56.17093,0</coordinates>
		</Point>
	</Placemark>
	<Placemark id="084BE21CD91AD4DE87FA">
		<name>Звенигород</name>
		<description>1339 Звенигородъ</description>
		<Point>
			<coordinates>36.84012,55.73291,0</coordinates>
		</Point>
	</Placemark>
	<Placemark id="1CBEAC31691AD4DE87FA">
		<name>Боголюбово</name>
		<description>1158 Боголюбый</description>
		<Point>
			<coordinates>40.53686,56.19615000000001,0</coordinates>
		</Point>
	</Placemark>
</Document>
</kml>
